[
   {
      "id"  : 0,
      "lat" : 40.66624476,
      "lon" : 16.60764279,
      "tags" : {
               "operator" : "Sognando Matera S.R.L.",
               "ref:vatin" : "IT1314120773",
               "beds" : "4",
               "name" : "Sognando Matera",
               "addr:street" : "Vico San Giuseppe ",
               "addr:housenumber" : "13",
               "tourism"  : "chalet"
               }
    }
,
   {
      "id"  : 1,
      "lat" : 40.667962,
      "lon" : 16.6035555,
      "tags" : {
               "operator" : "Tortorelli Maria Pia Giuseppa",
               "ref:vatin" : "TRTMPG64B58F052V",
               "beds" : "4",
               "name" : "\u2026in Centro Casa Vacanza",
               "addr:street" : "Via Spine Bianche",
               "tourism"  : "chalet"
               }
    }
,
   {
      "id"  : 2,
      "lat" : 40.6742311,
      "lon" : 16.5985928,
      "tags" : {
               "operator" : "Angelo Schiuma",
               "ref:vatin" : "SCHGL92M03F052E",
               "beds" : "4",
               "name" : "1955 Residence",
               "addr:street" : "Via Nazionale ",
               "addr:housenumber" : "89/a",
               "tourism"  : "chalet"
               }
    }
,
   {
      "id"  : 3,
      "lat" : 40.6602956,
      "lon" : 16.6090475,
      "tags" : {
               "operator" : "Coretti Nunzia Anna",
               "ref:vatin" : "CRTNZN64B64F052F",
               "beds" : "2",
               "name" : "A Casa di Deva",
               "addr:street" : "Via Don Milani ",
               "addr:housenumber" : "6",
               "tourism"  : "chalet"
               }
    }
,
   {
      "id"  : 4,
      "lat" : 40.6639544,
      "lon" : 16.6111861,
      "tags" : {
               "operator" : "Paolicelli Chiara Maria",
               "ref:vatin" : "PLCCRM53M56F052H",
               "beds" : "4",
               "name" : "A Casa di Irene",
               "addr:street" : "Via Bruno Buozzi ",
               "addr:housenumber" : "60",
               "tourism"  : "chalet"
               }
    }
,
   {
      "id"  : 5,
      "lat" : 40.6678904,
      "lon" : 16.6016855,
      "tags" : {
               "operator" : "Dimichino Florella",
               "ref:vatin" : "DMCFRL85S70F052E",
               "beds" : "4",
               "name" : "A Casa di Nonna",
               "addr:street" : "Via M. Torraca ",
               "addr:housenumber" : "24",
               "tourism"  : "chalet"
               }
    }
,
   {
      "id"  : 6,
      "lat" : 40.67137942,
      "lon" : 16.60623775,
      "tags" : {
               "operator" : "Manicone Michela",
               "ref:vatin" : "MNCMHL82B53A225Z",
               "beds" : "2",
               "name" : "A Casa di Romeo",
               "addr:street" : "Via f.lli Rosselli ",
               "addr:housenumber" : "66",
               "tourism"  : "chalet"
               }
    }
,
   {
      "id"  : 7,
      "lat" : 40.6622029,
      "lon" : 16.610801,
      "tags" : {
               "operator" : "Rondinone Annunziata",
               "ref:vatin" : "RNDNNZ55S59F052C",
               "beds" : "3",
               "name" : "A Casa di Rosa",
               "addr:street" : "Vico Lucana ",
               "addr:housenumber" : "8",
               "tourism"  : "chalet"
               }
    }
,
   {
      "id"  : 8,
      "lat" : 40.675572,
      "lon" : 16.599637,
      "tags" : {
               "operator" : "Romano Antonietta",
               "ref:vatin" : "RMNNNT71C56F052V",
               "beds" : "4",
               "name" : "A Due Passi dai Sassi",
               "addr:street" : "Via Gugliemo Marconi ",
               "addr:housenumber" : "14",
               "tourism"  : "chalet"
               }
    }
,
   {
      "id"  : 9,
      "lat" : 40.6601464,
      "lon" : 16.6107644,
      "tags" : {
               "operator" : "Cillis Rita",
               "ref:vatin" : "CLLRTI61A44I907F",
               "beds" : "4",
               "name" : "A Matera Casa Vacanza",
               "addr:street" : "Via G. Fortunato ",
               "addr:housenumber" : "6",
               "tourism"  : "chalet"
               }
    }
,
   {
      "id"  : 10,
      "lat" : 40.66059364,
      "lon" : 16.61350269,
      "tags" : {
               "operator" : "Affare Fatto S.R.L.s",
               "ref:vatin" : "IT1279980773",
               "beds" : "4",
               "name" : "A Vista sui Sassi",
               "addr:street" : "Recinto Sesto Lucana ",
               "addr:housenumber" : "1",
               "tourism"  : "chalet"
               }
    }
,
   {
      "id"  : 11,
      "lat" : 40.6651906,
      "lon" : 16.6119451,
      "tags" : {
               "operator" : "Corleto Vincenzo Domenico",
               "ref:vatin" : "CRLVCN78L10G786M",
               "beds" : "8",
               "name" : "Agora' nei Sassi",
               "addr:street" : "Via Sant'Angelo  ",
               "addr:housenumber" : "28/29",
               "tourism"  : "chalet"
               }
    }
,
   {
      "id"  : 12,
      "lat" : 40.6678384,
      "lon" : 16.6082168,
      "tags" : {
               "operator" : "Morelli Francesco",
               "ref:vatin" : "MRLFNC43C24F052G",
               "beds" : "4",
               "name" : "Ai Foggiali",
               "addr:street" : "Via San Biagio ",
               "addr:housenumber" : "46",
               "tourism"  : "chalet"
               }
    }
,
   {
      "id"  : 13,
      "lat" : 40.67071622,
      "lon" : 16.60585431,
      "tags" : {
               "operator" : "L&l La Mode S.R.L.",
               "ref:vatin" : "IT1220740771",
               "beds" : "4",
               "name" : "Ai Poeti",
               "addr:street" : "Via Fratelli Rosselli ",
               "addr:housenumber" : "61",
               "tourism"  : "chalet"
               }
    }
,
   {
      "id"  : 14,
      "lat" : 40.6613551,
      "lon" : 16.6122331,
      "tags" : {
               "operator" : "Plasmati Giuseppe",
               "ref:vatin" : "PLSGPP75E08F052M",
               "beds" : "4",
               "name" : "Ai Sassi di Pietro",
               "addr:street" : "Vico ",
               "addr:housenumber" : "1°",
               "tourism"  : "chalet"
               }
    }
,
   {
      "id"  : 15,
      "lat" : 40.66617144,
      "lon" : 16.61175509,
      "tags" : {
               "operator" : "Di Brizio Giusi",
               "ref:vatin" : "DBRGSI84H59F052U",
               "beds" : "4",
               "name" : "Al Duomo",
               "addr:street" : "Via Muro ",
               "addr:housenumber" : "2",
               "tourism"  : "chalet"
               }
    }
,
   {
      "id"  : 16,
      "lat" : 40.6669103,
      "lon" : 16.6109091,
      "tags" : {
               "operator" : "Petrachi Maria Angela Rosaria",
               "ref:vatin" : "PTRMNG68S64F052E",
               "beds" : "5",
               "name" : "Al Duomo Relais",
               "addr:street" : "Recinto Annunziata Vecchia ",
               "addr:housenumber" : "3",
               "tourism"  : "chalet"
               }
    }
,
   {
      "id"  : 17,
      "lat" : 40.6656789,
      "lon" : 16.6126694,
      "tags" : {
               "operator" : "Ferdinando Irene",
               "ref:vatin" : "RNIFDN73H10F052Q",
               "beds" : "4",
               "name" : "Alba Chiara",
               "addr:street" : "Via Sant'Angelo ",
               "addr:housenumber" : "35/36",
               "tourism"  : "chalet"
               }
    }
,
   {
      "id"  : 18,
      "lat" : 40.6609148,
      "lon" : 16.6113137,
      "tags" : {
               "operator" : "Festa Giuseppina",
               "ref:vatin" : "FSTGPP66L55F052Y",
               "beds" : "4",
               "name" : "Alba sui Sassi",
               "addr:street" : "Via Lucana ",
               "addr:housenumber" : "217",
               "tourism"  : "chalet"
               }
    }
,
   {
      "id"  : 19,
      "lat" : 40.66833895,
      "lon" : 16.60441982,
      "tags" : {
               "operator" : "Rosa Fabrizio",
               "ref:vatin" : "FBRRS045E42F052J",
               "beds" : "6",
               "name" : "Alessio De Sariis",
               "addr:street" : "Via De Sariis ",
               "addr:housenumber" : "12",
               "tourism"  : "chalet"
               }
    }
,
   {
      "id"  : 20,
      "lat" : 40.6725094,
      "lon" : 16.60035789,
      "tags" : {
               "operator" : "Frascati Carla",
               "ref:vatin" : "FRSCRL83E57F052C",
               "beds" : "4",
               "name" : "Alla Controra",
               "addr:street" : "Via Della Croce  ",
               "addr:housenumber" : "9/a",
               "tourism"  : "chalet"
               }
    }
,
   {
      "id"  : 21,
      "lat" : 40.667135,
      "lon" : 16.6077736,
      "tags" : {
               "operator" : "Lasala Anna",
               "ref:vatin" : "LSLNMR62A67F052B",
               "beds" : "2",
               "name" : "Alle Fornaci Vecchie",
               "addr:street" : "Via Fornaci Vecchie ",
               "addr:housenumber" : "4950",
               "tourism"  : "chalet"
               }
    }
,
   {
      "id"  : 22,
      "lat" : 40.667135,
      "lon" : 16.6077736,
      "tags" : {
               "operator" : "Lasala Anna",
               "ref:vatin" : "LSLNMR62A67F052B",
               "beds" : "2",
               "name" : "Alle Fornaci Vecchie Ipogei",
               "addr:street" : "Via Fornaci Vecchie ",
               "addr:housenumber" : "42",
               "tourism"  : "chalet"
               }
    }
,
   {
      "id"  : 23,
      "lat" : 40.6790991,
      "lon" : 16.5882187,
      "tags" : {
               "operator" : "Di Cuia Immacolata",
               "ref:vatin" : "DCIMCL75C51F052A",
               "beds" : "4",
               "name" : "Altea",
               "addr:street" : "Via Dei Bizantini ",
               "addr:housenumber" : "41",
               "tourism"  : "chalet"
               }
    }
,
   {
      "id"  : 24,
      "lat" : 40.6782757,
      "lon" : 16.5932915,
      "tags" : {
               "operator" : "Paradiso Angela",
               "ref:vatin" : "PRDNGL56D54F052S",
               "beds" : "4",
               "name" : "Alvino",
               "addr:street" : "Via San Pardo ",
               "addr:housenumber" : "46",
               "tourism"  : "chalet"
               }
    }
,
   {
      "id"  : 25,
      "lat" : 40.6710931,
      "lon" : 16.6086155,
      "tags" : {
               "operator" : "Scaglioso Antonio",
               "ref:vatin" : "SCGNTN44A19I467P",
               "beds" : "6",
               "name" : "Angelica",
               "addr:street" : "Via Santo Stefano ",
               "addr:housenumber" : "5",
               "tourism"  : "chalet"
               }
    }
,
   {
      "id"  : 26,
      "lat" : 40.666379,
      "lon" : 16.6043199,
      "tags" : {
               "operator" : "Iuliano Graziano Michelevia De Sariis 4 Piano1°",
               "ref:vatin" : "LNIGZN72B13F052R",
               "beds" : "4",
               "name" : "Angolo di Ninno",
               "tourism"  : "chalet"
               }
    }
,
   {
      "id"  : 27,
      "lat" : 40.66069472,
      "lon" : 16.61240653,
      "tags" : {
               "operator" : "Forgione Mariangela Eugenia",
               "ref:vatin" : "FRGMNG66T54B443X",
               "beds" : "4",
               "name" : "Antica Dimora Matera",
               "addr:street" : "Recinto Sesto Lucana ",
               "addr:housenumber" : "3",
               "tourism"  : "chalet"
               }
    }
,
   {
      "id"  : 28,
      "lat" : 40.6638588,
      "lon" : 16.6112163,
      "tags" : {
               "operator" : "Anna Maria Brucoli",
               "ref:vatin" : "BRCNMR64H59F052S",
               "beds" : "4",
               "name" : "Antico Convicino",
               "addr:street" : "Via Bruno Buozzi",
               "tourism"  : "chalet"
               }
    }
,
   {
      "id"  : 29,
      "lat" : 40.6659533,
      "lon" : 16.61113214,
      "tags" : {
               "operator" : "Rocco Ventura",
               "ref:vatin" : "VNTRCC75L18F052T",
               "name" : "Appartamento Mariana",
               "addr:street" : "Salita Castelvecchio ",
               "addr:housenumber" : "18",
               "tourism"  : "chalet"
               }
    }
,
   {
      "id"  : 30,
      "lat" : 40.6622029,
      "lon" : 16.610801,
      "tags" : {
               "operator" : "Gerardo Dubla",
               "ref:vatin" : "DBLGRD77B05F052E",
               "beds" : "5",
               "name" : "Appartamento Matera Centro",
               "addr:street" : "Via Lucana ",
               "addr:housenumber" : "113",
               "tourism"  : "chalet"
               }
    }
,
   {
      "id"  : 31,
      "lat" : 40.6641602,
      "lon" : 16.6086228,
      "tags" : {
               "operator" : "Cosimo Grieco",
               "ref:vatin" : "GRCCSM68P17G942N",
               "beds" : "5",
               "name" : "Ary",
               "addr:street" : "Via Alessandro Volta ",
               "addr:housenumber" : "1",
               "tourism"  : "chalet"
               }
    }
,
   {
      "id"  : 32,
      "lat" : 40.6661359,
      "lon" : 16.6117184,
      "tags" : {
               "operator" : "Elisabetta Lupo",
               "ref:vatin" : "LPULBT61C42F052H",
               "beds" : "9",
               "name" : "Bella Vista",
               "addr:street" : "Via Muro ",
               "addr:housenumber" : "55",
               "tourism"  : "chalet"
               }
    }
,
   {
      "id"  : 33,
      "lat" : 40.661685,
      "lon" : 16.6099972,
      "tags" : {
               "operator" : "Ambrosecchia Pasqualina",
               "ref:vatin" : "MBRMPS63D54F052L",
               "beds" : "6",
               "name" : "Biancaluna",
               "addr:street" : "Via Lucana ",
               "addr:housenumber" : "217",
               "tourism"  : "chalet"
               }
    }
,
   {
      "id"  : 34,
      "lat" : 40.6624345,
      "lon" : 16.6061548,
      "tags" : {
               "operator" : "Giuseppe Morelli",
               "ref:vatin" : "MRLGPP89L25F052W",
               "beds" : "4",
               "name" : "Capelvenere",
               "addr:street" : "Via La Nera ",
               "addr:housenumber" : "53",
               "tourism"  : "chalet"
               }
    }
,
   {
      "id"  : 35,
      "lat" : 40.6684195,
      "lon" : 16.6113478,
      "tags" : {
               "operator" : "Russo Massimiliano",
               "ref:vatin" : "RSSMSM73H07L049J",
               "beds" : "2",
               "name" : "Capparis",
               "addr:street" : "Via Madonna Delle Virtu' ",
               "addr:housenumber" : "27",
               "tourism"  : "chalet"
               }
    }
,
   {
      "id"  : 36,
      "lat" : 40.66459286,
      "lon" : 16.60056149,
      "tags" : {
               "operator" : "Musillo Rossano",
               "ref:vatin" : "MSLRSN90C01F052U",
               "beds" : "4",
               "name" : "Cappelluti Guest House",
               "addr:street" : "N.D. Cappelluti ",
               "addr:housenumber" : "47",
               "tourism"  : "chalet"
               }
    }
,
   {
      "id"  : 37,
      "lat" : 40.697225,
      "lon" : 16.529445,
      "tags" : {
               "operator" : "Cardinale Rosa",
               "ref:vatin" : "CRDRSO68M63F052M",
               "beds" : "8",
               "name" : "Cardinale",
               "addr:street" : "Contrada Le Matinelle",
               "tourism"  : "chalet"
               }
    }
,
   {
      "id"  : 38,
      "lat" : 40.6765806,
      "lon" : 16.5974695,
      "tags" : {
               "operator" : "Dell'Olio Cristina",
               "ref:vatin" : "DLLCST75H69C134F",
               "beds" : "4",
               "name" : "Carpe Diem",
               "addr:street" : "Via San Pardo ",
               "addr:housenumber" : "41",
               "tourism"  : "chalet"
               }
    }
,
   {
      "id"  : 39,
      "lat" : 40.6620822,
      "lon" : 16.6084449,
      "tags" : {
               "operator" : "Pennacchia Nicola",
               "ref:vatin" : "PNNNCL51D06L049I",
               "beds" : "8",
               "name" : "Casa Armonia",
               "addr:street" : "Via P.G. Minozzi ",
               "addr:housenumber" : "17",
               "tourism"  : "chalet"
               }
    }
,
   {
      "id"  : 40,
      "lat" : 40.6626457,
      "lon" : 16.607052,
      "tags" : {
               "operator" : "Nicola Montemurro",
               "ref:vatin" : "MNTNCL83E07F052I",
               "beds" : "3",
               "name" : "Casa Charlot",
               "addr:street" : "Via Serrao ",
               "addr:housenumber" : "71",
               "tourism"  : "chalet"
               }
    }
,
   {
      "id"  : 41,
      "lat" : 40.6635629,
      "lon" : 16.6113848,
      "tags" : {
               "operator" : "Iacovone Mario",
               "ref:vatin" : "CVNMRA54B09F052Q",
               "beds" : "4",
               "name" : "Casa Contini",
               "addr:street" : "Via Bruno Buozzi ",
               "addr:housenumber" : "81",
               "tourism"  : "chalet"
               }
    }
,
   {
      "id"  : 42,
      "lat" : 40.6746919,
      "lon" : 16.5996105,
      "tags" : {
               "operator" : "D'Ercole Giacinta",
               "ref:vatin" : "DRCGNT70R48F052I",
               "beds" : "4",
               "name" : "Casa Deda",
               "addr:street" : "Via Istria ",
               "addr:housenumber" : "7",
               "tourism"  : "chalet"
               }
    }
,
   {
      "id"  : 43,
      "lat" : 40.6794698,
      "lon" : 16.5817841,
      "tags" : {
               "operator" : "Braia Maria Teresa",
               "ref:vatin" : "BRAMTR69S42F052S",
               "beds" : "4",
               "name" : "Casa dei Puzzle",
               "addr:street" : "Via Bari ",
               "addr:housenumber" : "79",
               "tourism"  : "chalet"
               }
    }
,
   {
      "id"  : 44,
      "lat" : 40.6639544,
      "lon" : 16.6111861,
      "tags" : {
               "operator" : "Lionetti Felice Lucio",
               "ref:vatin" : "lntfcl55t13f052e",
               "beds" : "5",
               "name" : "Casa del Sole",
               "addr:street" : "Via San Pietro Caveoso ",
               "addr:housenumber" : "47-",
               "tourism"  : "chalet"
               }
    }
,
   {
      "id"  : 45,
      "lat" : 40.67444627,
      "lon" : 16.60308897,
      "tags" : {
               "operator" : "Dinisi Rosa",
               "ref:vatin" : "DNSRSO66H47I954V",
               "beds" : "4",
               "name" : "Casa di Francesca",
               "addr:street" : "Via Sicilia ",
               "addr:housenumber" : "13",
               "tourism"  : "chalet"
               }
    }
,
   {
      "id"  : 46,
      "lat" : 40.66515489,
      "lon" : 16.60423838,
      "tags" : {
               "operator" : "Sanrocco Michaela",
               "ref:vatin" : "SNRMHL92M44F052N",
               "beds" : "3",
               "name" : "Casa di Lilla",
               "addr:street" : "Via Passarelli ",
               "addr:housenumber" : "35",
               "tourism"  : "chalet"
               }
    }
,
   {
      "id"  : 47,
      "lat" : 40.64643229,
      "lon" : 16.62083577,
      "tags" : {
               "operator" : "De Bellis Rita",
               "ref:vatin" : "DBLRTI84A53F052Z",
               "beds" : "4",
               "name" : "La Casa di Rita",
               "addr:street" : "Via Rutigliano ",
               "addr:housenumber" : "20",
               "tourism"  : "chalet"
               }
    }
,
   {
      "id"  : 48,
      "lat" : 40.6702249,
      "lon" : 16.60851939,
      "tags" : {
               "operator" : "Bruna Cancelliere",
               "ref:vatin" : "PRSBGI77R09F052V",
               "beds" : "2",
               "name" : "Casa Du Matner",
               "addr:street" : "Via Piave ",
               "addr:housenumber" : "31",
               "tourism"  : "chalet"
               }
    }
,
   {
      "id"  : 49,
      "lat" : 40.65183926,
      "lon" : 16.6178548,
      "tags" : {
               "operator" : "Suriano Gianpaolo",
               "ref:vatin" : "SRNGPL78E20F052S",
               "beds" : "2",
               "name" : "Casa Ela",
               "addr:street" : "Via Paradiso ",
               "addr:housenumber" : "22",
               "tourism"  : "chalet"
               }
    }
,
   {
      "id"  : 50,
      "lat" : 40.666601,
      "lon" : 16.608135,
      "tags" : {
               "operator" : "Colucci Luigi",
               "ref:vatin" : "CLCLGU50R02F052F",
               "beds" : "4",
               "name" : "Casa Elena",
               "addr:street" : "Via Fiorentini ",
               "addr:housenumber" : "26",
               "tourism"  : "chalet"
               }
    }
,
   {
      "id"  : 51,
      "lat" : 40.671736,
      "lon" : 16.608556,
      "tags" : {
               "operator" : "Rocco Festa",
               "ref:vatin" : "FSTRCC66E30F052P",
               "beds" : "6",
               "name" : "Casa Festa",
               "addr:street" : "Colle Timmari",
               "tourism"  : "chalet"
               }
    }
,
   {
      "id"  : 52,
      "lat" : 40.67082833,
      "lon" : 16.5721091,
      "tags" : {
               "operator" : "Giuseppina Girardi",
               "ref:vatin" : "GRRGPP79A51E038T",
               "name" : "Casa G e A",
               "addr:street" : "Via Primo Maggio",
               "tourism"  : "chalet"
               }
    }
,
   {
      "id"  : 53,
      "lat" : 40.67082833,
      "lon" : 16.5721091,
      "tags" : {
               "operator" : "Girardi Giuseppina",
               "ref:vatin" : "GRRGPP79A51E038T",
               "beds" : "6",
               "name" : "Casa Gea",
               "addr:street" : "Via Primo Maggio",
               "tourism"  : "chalet"
               }
    }
,
   {
      "id"  : 54,
      "lat" : 40.666495,
      "lon" : 16.611328,
      "tags" : {
               "operator" : "Giuseppe Giura Longo",
               "ref:vatin" : "GRLGPP59P01F052X",
               "beds" : "3",
               "name" : "Casa Giura Longo",
               "addr:street" : "Piazza Duomo ",
               "addr:housenumber" : "2",
               "tourism"  : "chalet"
               }
    }
,
   {
      "id"  : 55,
      "lat" : 40.66513307,
      "lon" : 16.59426144,
      "tags" : {
               "operator" : "Ricciardi Bruna",
               "ref:vatin" : "RCCBRN58P60F052G",
               "beds" : "7",
               "name" : "Casa Grande",
               "addr:street" : "Viale Europa ",
               "addr:housenumber" : "18",
               "tourism"  : "chalet"
               }
    }
,
   {
      "id"  : 56,
      "lat" : 40.6492778,
      "lon" : 16.61655071,
      "tags" : {
               "operator" : "Francesco Angelillo",
               "ref:vatin" : "NGLFNC47A30F6370",
               "beds" : "6",
               "name" : "Casa Inclinata",
               "addr:street" : "Via Montescaglioso ",
               "addr:housenumber" : "20",
               "tourism"  : "chalet"
               }
    }
,
   {
      "id"  : 57,
      "lat" : 40.6672354,
      "lon" : 16.6036485,
      "tags" : {
               "operator" : "Lasalvia Maria Antonietta",
               "ref:vatin" : "LSLMNT70T41F052Y",
               "beds" : "2",
               "name" : "Casa Laura",
               "addr:street" : "Via Roma ",
               "addr:housenumber" : "62",
               "tourism"  : "chalet"
               }
    }
,
   {
      "id"  : 58,
      "lat" : 40.6687045,
      "lon" : 16.5975361,
      "tags" : {
               "operator" : "Tataranni Pietro Paolo",
               "ref:vatin" : "TTRPRP78S29G786D",
               "beds" : "4",
               "name" : "Casa Ma-j'",
               "addr:street" : "Via Einaudi ",
               "addr:housenumber" : "87",
               "tourism"  : "chalet"
               }
    }
,
   {
      "id"  : 59,
      "lat" : 40.6761857,
      "lon" : 16.5961501,
      "tags" : {
               "operator" : "Grazziella Persia",
               "ref:vatin" : "PRSGZL62T62F052A",
               "beds" : "5",
               "name" : "Casa Maddalena",
               "addr:street" : "Via Pizzilli ",
               "addr:housenumber" : "5",
               "tourism"  : "chalet"
               }
    }
,
   {
      "id"  : 60,
      "lat" : 40.67636917,
      "lon" : 16.59623466,
      "tags" : {
               "operator" : "Grazziella Persia",
               "ref:vatin" : "PRSGZL62T62F052A",
               "beds" : "5",
               "name" : "Casa Maddalena",
               "addr:street" : "Via Vincenzo Pizzilli ",
               "addr:housenumber" : "5",
               "tourism"  : "chalet"
               }
    }
,
   {
      "id"  : 61,
      "lat" : 40.669989,
      "lon" : 16.60884,
      "tags" : {
               "operator" : "Carmine Sinno",
               "ref:vatin" : "SNNCMN40E31F052R",
               "beds" : "4",
               "name" : "Casa Matera Sassi",
               "addr:street" : "Via Santa Cesarea  ",
               "addr:housenumber" : "3-9",
               "tourism"  : "chalet"
               }
    }
,
   {
      "id"  : 62,
      "lat" : 40.6597697,
      "lon" : 16.6117861,
      "tags" : {
               "operator" : "Laura Marzo",
               "ref:vatin" : "MRZLCN79R45G786C",
               "beds" : "5",
               "name" : "Casa Meteoron",
               "addr:street" : "Via Fortunato ",
               "addr:housenumber" : "47",
               "tourism"  : "chalet"
               }
    }
,
   {
      "id"  : 63,
      "lat" : 40.6717055,
      "lon" : 16.6084209,
      "tags" : {
               "operator" : "Chietera Carmela",
               "ref:vatin" : "CHTCML60H51A662Q",
               "beds" : "4",
               "name" : "Casa Michela",
               "addr:street" : "Via Santo Stefano ",
               "addr:housenumber" : "88",
               "tourism"  : "chalet"
               }
    }
,
   {
      "id"  : 64,
      "lat" : 40.67146011,
      "lon" : 16.60342736,
      "tags" : {
               "operator" : "Pasquale A. Andrulli",
               "ref:vatin" : "NDRQL68H13F052X",
               "beds" : "3",
               "name" : "Casa Nonna Franca",
               "addr:street" : "Rec Iii Annunziatella ",
               "addr:housenumber" : "24",
               "tourism"  : "chalet"
               }
    }
,
   {
      "id"  : 65,
      "lat" : 40.66663267,
      "lon" : 16.59803769,
      "tags" : {
               "operator" : "Emanuele Loperfido",
               "ref:vatin" : "LPRMNL69D25F052C",
               "beds" : "3",
               "name" : "Casa Relax",
               "addr:street" : "Via L. Einaudi ",
               "addr:housenumber" : "81",
               "tourism"  : "chalet"
               }
    }
,
   {
      "id"  : 66,
      "lat" : 40.67214979,
      "lon" : 16.60459406,
      "tags" : {
               "operator" : "Di Lecce Paola Rosa",
               "ref:vatin" : "DLCPRS46T62F052Q",
               "beds" : "5",
               "name" : "Casa Rosa",
               "addr:street" : "Via Giolitti.",
               "addr:housenumber" : "19",
               "tourism"  : "chalet"
               }
    }
,
   {
      "id"  : 67,
      "lat" : 40.67113,
      "lon" : 16.605989,
      "tags" : {
               "operator" : "Silvio Pietro Cafarelli",
               "ref:vatin" : "CFRSVPP55L18A017S",
               "beds" : "5",
               "name" : "Casa Rosselli",
               "addr:street" : "Via Rosselli ",
               "addr:housenumber" : "76",
               "tourism"  : "chalet"
               }
    }
,
   {
      "id"  : 68,
      "lat" : 40.6710931,
      "lon" : 16.6086155,
      "tags" : {
               "operator" : "Plasmati Antonio Vincenzo",
               "ref:vatin" : "PLSNNV52B04F052Q",
               "beds" : "4",
               "name" : "Casa Rubino",
               "addr:street" : "Via Santo Stefano ",
               "addr:housenumber" : "93",
               "tourism"  : "chalet"
               }
    }
,
   {
      "id"  : 69,
      "lat" : 40.66967922,
      "lon" : 16.60881024,
      "tags" : {
               "operator" : "Chiara Maria Vizziello",
               "ref:vatin" : "VZZCRM57C42F052A",
               "beds" : "4",
               "name" : "Casa Sassi Vizziello",
               "addr:street" : "Via Santa Cesarea ",
               "addr:housenumber" : "45",
               "tourism"  : "chalet"
               }
    }
,
   {
      "id"  : 70,
      "lat" : 40.669989,
      "lon" : 16.60884,
      "tags" : {
               "operator" : "Vizziello Chiara Maria",
               "ref:vatin" : "VZZCRM57C42F052A",
               "name" : "Casa Sassi-vizziello",
               "addr:street" : "Via Santa Cesarea ",
               "addr:housenumber" : "45",
               "tourism"  : "chalet"
               }
    }
,
   {
      "id"  : 71,
      "lat" : 40.6745131,
      "lon" : 16.5962545,
      "tags" : {
               "operator" : "Festa Annunziata",
               "ref:vatin" : "FSTNNZ74A71F052S",
               "beds" : "5",
               "name" : "Casa Serena",
               "addr:street" : "Via Tataranni ",
               "addr:housenumber" : "5",
               "tourism"  : "chalet"
               }
    }
,
   {
      "id"  : 72,
      "lat" : 40.669877,
      "lon" : 16.6036952,
      "tags" : {
               "operator" : "Giacoia Francesco Paolo",
               "ref:vatin" : "CSLGPP71L21F052N",
               "beds" : "5",
               "name" : "Casa Silvana",
               "addr:street" : "Via Protospata ",
               "addr:housenumber" : "52",
               "tourism"  : "chalet"
               }
    }
,
   {
      "id"  : 73,
      "lat" : 40.668934,
      "lon" : 16.6055,
      "tags" : {
               "operator" : "Antonella Schiuma",
               "ref:vatin" : "SCHNNT59S43F052O",
               "beds" : "5",
               "name" : "Casa Tonia",
               "addr:street" : "Vico Fornaci ",
               "addr:housenumber" : "7",
               "tourism"  : "chalet"
               }
    }
,
   {
      "id"  : 74,
      "lat" : 40.65894673,
      "lon" : 16.60368591,
      "tags" : {
               "operator" : "Stella Agelo Raffaele",
               "ref:vatin" : "STLNLR53D07F052V",
               "beds" : "4",
               "name" : "Casa Vac. Donna Grazia",
               "addr:street" : "Via Del Tulipano ",
               "addr:housenumber" : "9",
               "tourism"  : "chalet"
               }
    }
,
   {
      "id"  : 75,
      "lat" : 40.66023146,
      "lon" : 16.6146961,
      "tags" : {
               "operator" : "Licchelli Raffaello",
               "ref:vatin" : "LCCRFL88B20G786Y",
               "beds" : "2",
               "name" : "Casa Vaca. Il Belvedere sui Sassi",
               "addr:street" : "Via Casalnuovo ",
               "addr:housenumber" : "179",
               "tourism"  : "chalet"
               }
    }
,
   {
      "id"  : 76,
      "lat" : 40.6682645,
      "lon" : 16.6072005,
      "tags" : {
               "operator" : "Giusi Vignola",
               "ref:vatin" : "VGNGSI81T63F052V",
               "beds" : "4",
               "name" : "Casa Vacanza",
               "addr:street" : "Vico Xx Settembre ",
               "addr:housenumber" : "40",
               "tourism"  : "chalet"
               }
    }
,
   {
      "id"  : 77,
      "lat" : 40.6417977,
      "lon" : 16.624082,
      "tags" : {
               "operator" : "Lionetti Antonio Vincenzo",
               "ref:vatin" : "LNTNNV54D30F052Z",
               "beds" : "4",
               "name" : "Casa Vacanza All'ofra",
               "addr:street" : "Via  Dell'Ariete ",
               "addr:housenumber" : "5",
               "tourism"  : "chalet"
               }
    }
,
   {
      "id"  : 78,
      "lat" : 40.6536,
      "lon" : 16.61796,
      "tags" : {
               "operator" : "Simona Cuscianna",
               "ref:vatin" : "CSCSMN81E52C134A",
               "name" : "Casa Vacanza Cappuccini",
               "addr:street" : "Via Cappuccini ",
               "addr:housenumber" : "14",
               "tourism"  : "chalet"
               }
    }
,
   {
      "id"  : 79,
      "lat" : 40.66489387,
      "lon" : 16.59490609,
      "tags" : {
               "operator" : "Lanzolla Nicola",
               "ref:vatin" : "LNZNCL80E07F052A",
               "beds" : "4",
               "name" : "Casa Vacanza Da Nico",
               "addr:street" : "Viale Europa ",
               "addr:housenumber" : "14",
               "tourism"  : "chalet"
               }
    }
,
   {
      "id"  : 80,
      "lat" : 40.6513331,
      "lon" : 16.6182542,
      "tags" : {
               "operator" : "Angela Di Cecca",
               "ref:vatin" : "DCCNGL65B43F052W",
               "beds" : "5",
               "name" : "Casa Vacanza del Sud",
               "addr:street" : "Vico ",
               "addr:housenumber" : "4",
               "tourism"  : "chalet"
               }
    }
,
   {
      "id"  : 81,
      "lat" : 40.67058035,
      "lon" : 16.60792894,
      "tags" : {
               "operator" : "Lamanna Domenico",
               "ref:vatin" : "LMNDNC97R25L109O",
               "beds" : "5",
               "name" : "Casa Vacanza L'alloro",
               "addr:street" : "Via Pentasuglia ",
               "addr:housenumber" : "20",
               "tourism"  : "chalet"
               }
    }
,
   {
      "id"  : 82,
      "lat" : 40.67058035,
      "lon" : 16.60792894,
      "tags" : {
               "operator" : "Lamanna Domenico",
               "ref:vatin" : "LMNDNC97R25L109O",
               "beds" : "6",
               "name" : "Casa Vacanza L'alloro  2",
               "addr:street" : "Via T. Tasso  ",
               "addr:housenumber" : "28",
               "tourism"  : "chalet"
               }
    }
,
   {
      "id"  : 83,
      "lat" : 40.67906468,
      "lon" : 16.59470206,
      "tags" : {
               "operator" : "Coretti Giuseppe",
               "ref:vatin" : "CRTGPP90S16A225Z",
               "beds" : "2",
               "name" : "Casa Vacanza La Gravinella",
               "addr:street" : "Via M. Rosario Greco ",
               "addr:housenumber" : "26/e",
               "tourism"  : "chalet"
               }
    }
,
   {
      "id"  : 84,
      "lat" : 40.66117921,
      "lon" : 16.61299223,
      "tags" : {
               "operator" : "Stella Giovanni",
               "ref:vatin" : "STLGNN80R20F052Q",
               "beds" : "1",
               "name" : "Casa Vacanza La Seta nei Sassi",
               "addr:street" : "Vico ",
               "addr:housenumber" : "1°",
               "tourism"  : "chalet"
               }
    }
,
   {
      "id"  : 85,
      "lat" : 40.66730462,
      "lon" : 16.59487792,
      "tags" : {
               "operator" : "Lionetti Antonio Vincenzo",
               "ref:vatin" : "LNTNNV54D30F052Z",
               "beds" : "6",
               "name" : "Casa Vacanza Lionetti",
               "addr:street" : "Viale Delle Nazioni Unite ",
               "addr:housenumber" : "22",
               "tourism"  : "chalet"
               }
    }
,
   {
      "id"  : 86,
      "lat" : 40.659489,
      "lon" : 16.6142328,
      "tags" : {
               "operator" : "Vinciguerra Vincenzo",
               "ref:vatin" : "VNCVCN75E22E038C",
               "beds" : "4",
               "name" : "Casa Vacanza Lucana",
               "addr:street" : "Via Lucana ",
               "addr:housenumber" : "291",
               "tourism"  : "chalet"
               }
    }
,
   {
      "id"  : 87,
      "lat" : 40.66843,
      "lon" : 16.597809,
      "tags" : {
               "operator" : "Francesco Maragno",
               "ref:vatin" : "MRGFNC62E29F052M",
               "name" : "Casa Vacanza Maragno",
               "addr:street" : "Via Luigi Einaudi ",
               "addr:housenumber" : "20",
               "tourism"  : "chalet"
               }
    }
,
   {
      "id"  : 88,
      "lat" : 40.6649624,
      "lon" : 16.6087858,
      "tags" : {
               "operator" : "Petralla Luciana Vittoria",
               "ref:vatin" : "PTRVTR57P67F052Q",
               "beds" : "3",
               "name" : "Casa Vacanza Margherita",
               "addr:street" : "Via Ascanio Persio",
               "tourism"  : "chalet"
               }
    }
,
   {
      "id"  : 89,
      "lat" : 40.67258414,
      "lon" : 16.60054071,
      "tags" : {
               "operator" : "Ambrosecchia Addolorata",
               "ref:vatin" : "MBRDLR63L54F052Z",
               "beds" : "3",
               "name" : "Casa Vacanza Xenia",
               "addr:street" : "Via Della Croce ",
               "addr:housenumber" : "5",
               "tourism"  : "chalet"
               }
    }
,
   {
      "id"  : 90,
      "lat" : 40.663697,
      "lon" : 16.609497,
      "tags" : {
               "operator" : "Annunziata Iacovone",
               "ref:vatin" : "CVNNNZ67R44F052H",
               "beds" : "3",
               "name" : "Casa Vacanze Case Nuove",
               "addr:street" : "Vico Case Nuove  ",
               "addr:housenumber" : "37",
               "tourism"  : "chalet"
               }
    }
,
   {
      "id"  : 91,
      "lat" : 40.665315,
      "lon" : 16.6016844,
      "tags" : {
               "operator" : "Francesco Ruggieri",
               "ref:vatin" : "RGGFNC84A24L109T",
               "beds" : "4",
               "name" : "Casa Vacanze Corona",
               "addr:street" : "Via Cappelluti ",
               "addr:housenumber" : "14",
               "tourism"  : "chalet"
               }
    }
,
   {
      "id"  : 92,
      "lat" : 40.6678407,
      "lon" : 16.6091579,
      "tags" : {
               "operator" : "Antonello Mannarelli",
               "ref:vatin" : "MNNNNL72A24A662W",
               "beds" : "4",
               "name" : "Casa Vacanze dei Sassi Roseus",
               "addr:street" : "Via San Rocco ",
               "addr:housenumber" : "42",
               "tourism"  : "chalet"
               }
    }
,
   {
      "id"  : 93,
      "lat" : 40.67075363,
      "lon" : 16.60681657,
      "tags" : {
               "operator" : "Cosimo D. Gaudiano",
               "ref:vatin" : "GDNCMD63L29F052S",
               "name" : "Casa Vacanze Diadema",
               "addr:street" : "Via T. Tasso ",
               "addr:housenumber" : "1",
               "tourism"  : "chalet"
               }
    }
,
   {
      "id"  : 94,
      "lat" : 40.66649752,
      "lon" : 16.61253156,
      "tags" : {
               "operator" : "Pasquale Olivieri",
               "ref:vatin" : "LVRPQL88A03L418K",
               "beds" : "3",
               "name" : "Casa Vacanze La Civita",
               "addr:street" : "Rec. San Giacomo ",
               "addr:housenumber" : "9",
               "tourism"  : "chalet"
               }
    }
,
   {
      "id"  : 95,
      "lat" : 40.6663126,
      "lon" : 16.6049227,
      "tags" : {
               "operator" : "Petralla Vittoria Luciana",
               "ref:vatin" : "PTRVTR57P67F052O",
               "beds" : "3",
               "name" : "Casa Vacanze Margherita",
               "addr:street" : "Via A. Persio ",
               "addr:housenumber" : "31",
               "tourism"  : "chalet"
               }
    }
,
   {
      "id"  : 96,
      "lat" : 40.6863271,
      "lon" : 16.5684731,
      "tags" : {
               "operator" : "Parco Gattini S.R.L.s",
               "ref:vatin" : "IT7967100723",
               "beds" : "5",
               "name" : "Casa Vacanze Nina",
               "addr:street" : "Contrada Parco Gattini",
               "tourism"  : "chalet"
               }
    }
,
   {
      "id"  : 97,
      "lat" : 40.669989,
      "lon" : 16.60884,
      "tags" : {
               "operator" : "Angela Maria Bolzoni",
               "ref:vatin" : "BLZNLM60B54B961Q",
               "beds" : "2",
               "name" : "Casa Vacanze Nonna Giulia",
               "addr:street" : "Via Santa Cesarea ",
               "addr:housenumber" : "49-51",
               "tourism"  : "chalet"
               }
    }
,
   {
      "id"  : 98,
      "lat" : 40.67595922,
      "lon" : 16.59821841,
      "tags" : {
               "operator" : "Lasalvia Antonia",
               "ref:vatin" : "LSLNTN75B55F052S",
               "beds" : "3",
               "name" : "Casa Vacanze Regina",
               "addr:street" : "Rec.Pietro De Vito ",
               "addr:housenumber" : "3",
               "tourism"  : "chalet"
               }
    }
,
   {
      "id"  : 99,
      "lat" : 40.6608489,
      "lon" : 16.6131396,
      "tags" : {
               "operator" : "Lamuraglia Pasquale",
               "ref:vatin" : "LMRPQL90S13A662T",
               "beds" : "4",
               "name" : "Casa Vacanze Rest'",
               "addr:street" : "Vico ",
               "addr:housenumber" : "2",
               "tourism"  : "chalet"
               }
    }
,
   {
      "id"  : 100,
      "lat" : 40.6706202,
      "lon" : 16.60751848,
      "tags" : {
               "operator" : "Rocco La Fiosca",
               "ref:vatin" : "LFSCC68C13F052T",
               "beds" : "3",
               "name" : "Casa Vacanze Rola",
               "addr:street" : "Via Pentasuglia ",
               "addr:housenumber" : "38",
               "tourism"  : "chalet"
               }
    }
,
   {
      "id"  : 101,
      "lat" : 40.6678407,
      "lon" : 16.6091579,
      "tags" : {
               "operator" : "Antonello Mannarelli",
               "ref:vatin" : "MNNNNL72A24A662W",
               "beds" : "3",
               "name" : "Casa Vacanze Roseus",
               "addr:street" : "Via San Rocco ",
               "addr:housenumber" : "42",
               "tourism"  : "chalet"
               }
    }
,
   {
      "id"  : 102,
      "lat" : 40.665315,
      "lon" : 16.6016844,
      "tags" : {
               "operator" : "Venanzia Rizzi",
               "ref:vatin" : "RZZVNZ70C57F052A",
               "beds" : "2",
               "name" : "Casa Vena'",
               "addr:street" : "Via Cappelluti ",
               "addr:housenumber" : "50",
               "tourism"  : "chalet"
               }
    }
,
   {
      "id"  : 103,
      "lat" : 40.6663507,
      "lon" : 16.6096087,
      "tags" : {
               "operator" : "Andrulli Giuseppe",
               "ref:vatin" : "NDRGPP83E23F052H",
               "beds" : "7",
               "name" : "Casa Vetere",
               "addr:street" : "Via Sette Dolori ",
               "addr:housenumber" : "52",
               "tourism"  : "chalet"
               }
    }
,
   {
      "id"  : 104,
      "lat" : 40.668147,
      "lon" : 16.609776,
      "tags" : {
               "operator" : "Martino Eustachio V.",
               "ref:vatin" : "MRTSCH53B22F0520",
               "beds" : "2",
               "name" : "Casa Vittoria",
               "addr:street" : "Via D'Addozio ",
               "addr:housenumber" : "19",
               "tourism"  : "chalet"
               }
    }
,
   {
      "id"  : 105,
      "lat" : 40.66972986,
      "lon" : 16.60969209,
      "tags" : {
               "operator" : "Eustachi Vincenzo Martino",
               "ref:vatin" : "MRTSCH53B22F052O",
               "beds" : "3",
               "name" : "Casa Vittoria",
               "addr:street" : "Via D'Addozio ",
               "addr:housenumber" : "19",
               "tourism"  : "chalet"
               }
    }
,
   {
      "id"  : 106,
      "lat" : 40.66886894,
      "lon" : 16.61065803,
      "tags" : {
               "operator" : "Pf S.R.L.",
               "ref:vatin" : "IT1301920771",
               "beds" : "2",
               "name" : "Casale 24",
               "addr:street" : "Via Casale ",
               "addr:housenumber" : "25",
               "tourism"  : "chalet"
               }
    }
,
   {
      "id"  : 107,
      "lat" : 40.6663738,
      "lon" : 16.6075909,
      "tags" : {
               "operator" : "Silvia Monacelli",
               "ref:vatin" : "IT1311340770",
               "beds" : "5",
               "name" : "Casamata",
               "addr:street" : "Vico Lombardi ",
               "addr:housenumber" : "27",
               "tourism"  : "chalet"
               }
    }
,
   {
      "id"  : 108,
      "lat" : 40.66029022,
      "lon" : 16.61385719,
      "tags" : {
               "operator" : "Andrisani Antonella",
               "ref:vatin" : "NDRNNL82S43F052F",
               "beds" : "4",
               "name" : "Casatelier Erbavento",
               "addr:street" : "Via Casalnuovo ",
               "addr:housenumber" : "130",
               "tourism"  : "chalet"
               }
    }
,
   {
      "id"  : 109,
      "lat" : 40.666275,
      "lon" : 16.607058,
      "tags" : {
               "operator" : "Notaro Andrea",
               "ref:vatin" : "NTRNDR83H13F052R",
               "beds" : "2",
               "name" : "Casino San Giuseppe",
               "addr:street" : "Vico San Giuseppe ",
               "addr:housenumber" : "4",
               "tourism"  : "chalet"
               }
    }
,
   {
      "id"  : 110,
      "lat" : 40.6626457,
      "lon" : 16.607052,
      "tags" : {
               "operator" : "Di Lecce Chiara",
               "ref:vatin" : "DLCCHR82P68F052U",
               "beds" : "2",
               "name" : "Casisina",
               "addr:street" : "Via A. Serrao ",
               "addr:housenumber" : "9",
               "tourism"  : "chalet"
               }
    }
,
   {
      "id"  : 111,
      "lat" : 40.66253475,
      "lon" : 16.60732601,
      "tags" : {
               "operator" : "Enrico Iacobucci",
               "ref:vatin" : "CBCNRC55C18F052P",
               "beds" : "7",
               "name" : "Castel Ridola",
               "addr:street" : "Via A. Serrao ",
               "addr:housenumber" : "71",
               "tourism"  : "chalet"
               }
    }
,
   {
      "id"  : 112,
      "lat" : 40.66841026,
      "lon" : 16.60008461,
      "tags" : {
               "operator" : "D'Alessandro Dimitri",
               "ref:vatin" : "DLSDTR76C08F052X",
               "beds" : "2",
               "name" : "Centrale",
               "addr:street" : "Via U. La Mafa ",
               "addr:housenumber" : "108-6",
               "tourism"  : "chalet"
               }
    }
,
   {
      "id"  : 113,
      "lat" : 40.6730773,
      "lon" : 16.60029631,
      "tags" : {
               "operator" : "Cancelliere Paola",
               "ref:vatin" : "CNCPLA63P63F052O",
               "beds" : "5",
               "name" : "Chesami'",
               "addr:street" : "Via Tommaso Traetta ",
               "addr:housenumber" : "4",
               "tourism"  : "chalet"
               }
    }
,
   {
      "id"  : 114,
      "lat" : 40.6702249,
      "lon" : 16.60851939,
      "tags" : {
               "operator" : "Tralli Vincenzo",
               "ref:vatin" : "TRLVCN68C11F052P",
               "beds" : "4",
               "name" : "Chiara",
               "addr:street" : "Vico Ii P. Festa ",
               "addr:housenumber" : "28",
               "tourism"  : "chalet"
               }
    }
,
   {
      "id"  : 115,
      "lat" : 40.66690215,
      "lon" : 16.60784421,
      "tags" : {
               "operator" : "Leano Cancelliere",
               "ref:vatin" : "IT368670774",
               "beds" : "3",
               "name" : "Choabitat Sassi",
               "addr:street" : "Vicolo Fornaci Vecchie ",
               "addr:housenumber" : "43",
               "tourism"  : "chalet"
               }
    }
,
   {
      "id"  : 116,
      "lat" : 40.66495423,
      "lon" : 16.5906366,
      "tags" : {
               "operator" : "Schiuma Maria",
               "ref:vatin" : "SCHMRA61L49F052I",
               "beds" : "4",
               "name" : "Ciccio & Rosa",
               "addr:street" : "Viale Padre Serfino Da Salandra ",
               "addr:housenumber" : "5",
               "tourism"  : "chalet"
               }
    }
,
   {
      "id"  : 117,
      "lat" : 40.666379,
      "lon" : 16.6043199,
      "tags" : {
               "operator" : "Schiuma Maria E.",
               "ref:vatin" : "IT1206160770",
               "beds" : "5",
               "name" : "Ciccio e Rosa",
               "addr:street" : "Via La Croce ",
               "addr:housenumber" : "9/b",
               "tourism"  : "chalet"
               }
    }
,
   {
      "id"  : 118,
      "lat" : 40.64421783,
      "lon" : 16.62440262,
      "tags" : {
               "operator" : "Anna Di Pede",
               "ref:vatin" : "DPDNMR46T42F052B",
               "beds" : "4",
               "name" : "Civico 19",
               "addr:street" : "Via Ricciardi  ",
               "addr:housenumber" : "19",
               "tourism"  : "chalet"
               }
    }
,
   {
      "id"  : 119,
      "lat" : 40.6676361,
      "lon" : 16.6118504,
      "tags" : {
               "operator" : "Francesco Sacco",
               "ref:vatin" : "SCCFNC74M14C134F",
               "name" : "Civita",
               "addr:street" : "Vico Civita ",
               "addr:housenumber" : "11",
               "tourism"  : "chalet"
               }
    }
,
   {
      "id"  : 120,
      "lat" : 40.6674937,
      "lon" : 16.6045006,
      "tags" : {
               "operator" : "Sciortino Giuseppina",
               "ref:vatin" : "SCRGPP59P65F284N",
               "beds" : "5",
               "name" : "Clair De Luna",
               "addr:street" : "Via Lucana ",
               "addr:housenumber" : "343",
               "tourism"  : "chalet"
               }
    }
,
   {
      "id"  : 121,
      "lat" : 40.6602945,
      "lon" : 16.602162,
      "tags" : {
               "operator" : "D'Adamo Carmela",
               "ref:vatin" : "DDMCML48C56F052N",
               "beds" : "3",
               "name" : "Conte Tramontano",
               "addr:street" : "Viale Del Ciclamino ",
               "addr:housenumber" : "5",
               "tourism"  : "chalet"
               }
    }
,
   {
      "id"  : 122,
      "lat" : 40.667503,
      "lon" : 16.6054393,
      "tags" : {
               "operator" : "Braia Cosimo Damiano",
               "ref:vatin" : "BRACMD39D11F052D",
               "beds" : "2",
               "name" : "Cosma",
               "addr:street" : "Via Roma ",
               "addr:housenumber" : "10",
               "tourism"  : "chalet"
               }
    }
,
   {
      "id"  : 123,
      "lat" : 40.66702641,
      "lon" : 16.59146929,
      "tags" : {
               "operator" : "Elisa Cuccuglielli",
               "ref:vatin" : "CCGLSEF69D68E155X",
               "beds" : "4",
               "name" : "Da Emmimi",
               "addr:street" : "Viale Gianturco ",
               "addr:housenumber" : "2",
               "tourism"  : "chalet"
               }
    }
,
   {
      "id"  : 124,
      "lat" : 40.666275,
      "lon" : 16.607058,
      "tags" : {
               "operator" : "Carlucci Giuseppe",
               "ref:vatin" : "CRLGPP80H19F052U",
               "beds" : "4",
               "name" : "Da Zia Lalla",
               "addr:street" : "Vico San Giuseppe ",
               "addr:housenumber" : "13",
               "tourism"  : "chalet"
               }
    }
,
   {
      "id"  : 125,
      "lat" : 40.66965853,
      "lon" : 16.60833578,
      "tags" : {
               "operator" : "Teresa Saladini",
               "ref:vatin" : "SLDTRS8847F052J",
               "beds" : "5",
               "name" : "Daddy's House",
               "addr:street" : "Rec. Piave ",
               "addr:housenumber" : "2",
               "tourism"  : "chalet"
               }
    }
,
   {
      "id"  : 126,
      "lat" : 40.67083078,
      "lon" : 16.58189865,
      "tags" : {
               "operator" : "Antonio Poti'",
               "ref:vatin" : "PTONTN53A22E506Z",
               "beds" : "2",
               "name" : "Dea",
               "addr:street" : "Vico ",
               "addr:housenumber" : "1°",
               "tourism"  : "chalet"
               }
    }
,
   {
      "id"  : 127,
      "lat" : 40.6659817,
      "lon" : 16.6051723,
      "tags" : {
               "operator" : "Renato Mele",
               "ref:vatin" : "MLERNT52D09F052X",
               "beds" : "10",
               "name" : "Di Anna Matera In Centro",
               "addr:street" : "Via Lucana ",
               "addr:housenumber" : "73",
               "tourism"  : "chalet"
               }
    }
,
   {
      "id"  : 128,
      "lat" : 40.6640327,
      "lon" : 16.60036356,
      "tags" : {
               "operator" : "Giordano Maria Rosaria",
               "ref:vatin" : "GRDMRS66C61F052V",
               "beds" : "4",
               "name" : "Dietro L'angolo",
               "addr:street" : "Vico Ii Cappelluti ",
               "addr:housenumber" : "5",
               "tourism"  : "chalet"
               }
    }
,
   {
      "id"  : 129,
      "lat" : 40.6591175,
      "lon" : 16.6147381,
      "tags" : {
               "operator" : "Gerardo Fornataro",
               "ref:vatin" : "FRNGRD78B26F052V",
               "beds" : "6",
               "name" : "Dimora Al Mulino",
               "addr:street" : "Via Lucana  ",
               "addr:housenumber" : "295",
               "tourism"  : "chalet"
               }
    }
,
   {
      "id"  : 130,
      "lat" : 40.6694488,
      "lon" : 16.5844563,
      "tags" : {
               "operator" : "Gaudiano Nunzia",
               "ref:vatin" : "GDNNNZ72P67F052B",
               "beds" : "4",
               "name" : "Dimora Degl Aragonesi",
               "addr:street" : "Via Degli Aragonesi ",
               "addr:housenumber" : "59",
               "tourism"  : "chalet"
               }
    }
,
   {
      "id"  : 131,
      "lat" : 40.66495423,
      "lon" : 16.5906366,
      "tags" : {
               "operator" : "Schiuma Maria E.",
               "ref:vatin" : "SCHMRA61L49F052I",
               "name" : "Dimora degli Oleandri",
               "addr:street" : "Via P. Serafino Da Salandra ",
               "addr:housenumber" : "5",
               "tourism"  : "chalet"
               }
    }
,
   {
      "id"  : 132,
      "lat" : 40.66524589,
      "lon" : 16.61007726,
      "tags" : {
               "operator" : "Porfido Nunziata",
               "ref:vatin" : "PRFNZT36S57F052V",
               "beds" : "4",
               "name" : "Dimora del Sedile",
               "addr:street" : "Piazza Sedile  ",
               "addr:housenumber" : "35",
               "tourism"  : "chalet"
               }
    }
,
   {
      "id"  : 133,
      "lat" : 40.65183926,
      "lon" : 16.6178548,
      "tags" : {
               "operator" : "Suriano Gianpaolo",
               "ref:vatin" : "SRNGPL78E20F052S",
               "beds" : "2",
               "name" : "Dimora di Enzo",
               "addr:street" : "Via Paradiso ",
               "addr:housenumber" : "26",
               "tourism"  : "chalet"
               }
    }
,
   {
      "id"  : 134,
      "lat" : 40.6658083,
      "lon" : 16.6029124,
      "tags" : {
               "operator" : "Milillo Antonella",
               "ref:vatin" : "MLLNNL84R45F052L",
               "beds" : "6",
               "name" : "Dimora Margherita",
               "addr:street" : "Via Cappelluti  ",
               "addr:housenumber" : "4",
               "tourism"  : "chalet"
               }
    }
,
   {
      "id"  : 135,
      "lat" : 40.66426009,
      "lon" : 16.60971138,
      "tags" : {
               "operator" : "Cataldi Daniela",
               "ref:vatin" : "CTLDNL77L46G786Z",
               "beds" : "3",
               "name" : "Dimora nei Sassi",
               "addr:street" : "Via San Bartolomeo ",
               "addr:housenumber" : "2",
               "tourism"  : "chalet"
               }
    }
,
   {
      "id"  : 136,
      "lat" : 40.666379,
      "lon" : 16.6043199,
      "tags" : {
               "operator" : "Valeria Verrastro Terzullivia Casalnuovo 223",
               "ref:vatin" : "VRRVLR71E64G942Z",
               "beds" : "2",
               "name" : "Domus Alba",
               "tourism"  : "chalet"
               }
    }
,
   {
      "id"  : 137,
      "lat" : 40.6444539,
      "lon" : 16.6241476,
      "tags" : {
               "operator" : "Di Pede Giuseppe",
               "ref:vatin" : "DPDGPP69S11F052C",
               "name" : "Domus Angela Matera",
               "addr:street" : "Via T. Ricciardi ",
               "addr:housenumber" : "11",
               "tourism"  : "chalet"
               }
    }
,
   {
      "id"  : 138,
      "lat" : 40.6722145,
      "lon" : 16.6077102,
      "tags" : {
               "operator" : "Gianfranco Dionisi",
               "ref:vatin" : "DNSGFR69A24F052Q",
               "beds" : "6",
               "name" : "Domus Gaia Matera",
               "addr:street" : "Via Gattini ",
               "addr:housenumber" : "22",
               "tourism"  : "chalet"
               }
    }
,
   {
      "id"  : 139,
      "lat" : 40.6640327,
      "lon" : 16.60036356,
      "tags" : {
               "operator" : "Anna Zaccaro",
               "ref:vatin" : "ZCCNNA65S54F052V",
               "beds" : "4",
               "name" : "Domus Sassi",
               "addr:street" : "Vico",
               "addr:housenumber" : "3",
               "tourism"  : "chalet"
               }
    }
,
   {
      "id"  : 140,
      "lat" : 40.66781199,
      "lon" : 16.60454172,
      "tags" : {
               "operator" : "Andrulli Filomena",
               "ref:vatin" : "NDRFMN76C50F052N",
               "beds" : "5",
               "name" : "Domus Vilu'",
               "addr:street" : "Via Alessio De Sariis ",
               "addr:housenumber" : "19",
               "tourism"  : "chalet"
               }
    }
,
   {
      "id"  : 141,
      "lat" : 40.6666171,
      "lon" : 16.602594,
      "tags" : {
               "operator" : "Sarra Filippo Maria",
               "ref:vatin" : "SRRFPP45H05F052Q",
               "beds" : "3",
               "name" : "Don Franceschino",
               "addr:street" : "Via Don Minzoni ",
               "addr:housenumber" : "46",
               "tourism"  : "chalet"
               }
    }
,
   {
      "id"  : 142,
      "lat" : 40.651583,
      "lon" : 16.6168412,
      "tags" : {
               "operator" : "Colucci Donato",
               "ref:vatin" : "CLCDNT61L25F052K",
               "beds" : "3",
               "name" : "Donatello's House",
               "addr:street" : "Via Montescaglioso  ",
               "addr:housenumber" : "62",
               "tourism"  : "chalet"
               }
    }
,
   {
      "id"  : 143,
      "lat" : 40.66985173,
      "lon" : 16.60896517,
      "tags" : {
               "operator" : "D'Alessandro Marcella",
               "ref:vatin" : "DLSMCL61T68F637X",
               "beds" : "3",
               "name" : "Donna Letizia",
               "addr:street" : "Via Santa Cesarea ",
               "addr:housenumber" : "59",
               "tourism"  : "chalet"
               }
    }
,
   {
      "id"  : 144,
      "lat" : 40.66730392,
      "lon" : 16.60111143,
      "tags" : {
               "operator" : "Del Parigi Lucia",
               "ref:vatin" : "DLPLCU57C48E986X",
               "beds" : "3",
               "name" : "Due Passi dal Centro",
               "addr:street" : "Via U. La Malfa ",
               "addr:housenumber" : "14",
               "tourism"  : "chalet"
               }
    }
,
   {
      "id"  : 145,
      "lat" : 40.66629122,
      "lon" : 16.60970301,
      "tags" : {
               "operator" : "Montemurro Ivan",
               "ref:vatin" : "MNTVNI92L26F052Y",
               "beds" : "2",
               "name" : "Duende Casa Vacanza",
               "addr:street" : "Recinto Secondo Paradiso ",
               "addr:housenumber" : "25",
               "tourism"  : "chalet"
               }
    }
,
   {
      "id"  : 146,
      "lat" : 40.6616999,
      "lon" : 16.6090141,
      "tags" : {
               "operator" : "Andrisani Michele Antoniovia Chiancalata 20",
               "ref:vatin" : "NDRMHL58H12F052B",
               "beds" : "2",
               "name" : "Eco dei Sassi",
               "addr:street" : "Via Chiancalata ",
               "addr:housenumber" : "20",
               "tourism"  : "chalet"
               }
    }
,
   {
      "id"  : 147,
      "lat" : 40.66136737,
      "lon" : 16.58544417,
      "tags" : {
               "operator" : "Angelo Poti'",
               "ref:vatin" : "PTONGL78C27F052H",
               "beds" : "5",
               "name" : "Eden Sassi",
               "addr:street" : "Contrada Papalione",
               "tourism"  : "chalet"
               }
    }
,
   {
      "id"  : 148,
      "lat" : 40.6628731,
      "lon" : 16.6081203,
      "tags" : {
               "operator" : "Carmine Carella",
               "ref:vatin" : "CNNMNL79M24F052W",
               "beds" : "3",
               "name" : "Excellence",
               "addr:street" : "Via P. Vena ",
               "addr:housenumber" : "25",
               "tourism"  : "chalet"
               }
    }
,
   {
      "id"  : 149,
      "lat" : 40.65803438,
      "lon" : 16.53808723,
      "tags" : {
               "operator" : "Fiore Giuseppe",
               "ref:vatin" : "FRIGPP68M27F052T",
               "beds" : "5",
               "name" : "Finestra sul Borgo",
               "addr:street" : "Contrada Monacelle Snc",
               "tourism"  : "chalet"
               }
    }
,
   {
      "id"  : 150,
      "lat" : 40.66705647,
      "lon" : 16.60755368,
      "tags" : {
               "operator" : "Giuseppina D'Aria",
               "ref:vatin" : "DRAGPP54A62F052Q",
               "beds" : "4",
               "name" : "Gli Ipogei",
               "addr:street" : "Via Rosario ",
               "addr:housenumber" : "78",
               "tourism"  : "chalet"
               }
    }
,
   {
      "id"  : 151,
      "lat" : 40.641582,
      "lon" : 16.624182,
      "tags" : {
               "operator" : "Cristallo Maria Emanuella",
               "ref:vatin" : "CRSMMN61R51F052S",
               "beds" : "7",
               "name" : "Grano e Lavanda",
               "addr:street" : "Via Dei Pesci ",
               "addr:housenumber" : "6",
               "tourism"  : "chalet"
               }
    }
,
   {
      "id"  : 152,
      "lat" : 40.6641602,
      "lon" : 16.6086228,
      "tags" : {
               "operator" : "Cosimo Grieco",
               "ref:vatin" : "GRCCSM68P17G942N",
               "name" : "Grazy",
               "addr:street" : "Via Alessandro Volta ",
               "addr:housenumber" : "1",
               "tourism"  : "chalet"
               }
    }
,
   {
      "id"  : 153,
      "lat" : 40.66690215,
      "lon" : 16.60784421,
      "tags" : {
               "operator" : "Cancelliere Giovanni Leano",
               "ref:vatin" : "CNCGNN80A06F052J",
               "beds" : "3",
               "name" : "Habitat",
               "addr:street" : "Vicolo Fornaci Vecchie ",
               "addr:housenumber" : "48",
               "tourism"  : "chalet"
               }
    }
,
   {
      "id"  : 154,
      "lat" : 40.66495423,
      "lon" : 16.5906366,
      "tags" : {
               "operator" : "Rubino Angela",
               "ref:vatin" : "RBNNLL52B64F052Z",
               "beds" : "5",
               "name" : "Happy House",
               "addr:street" : "Via Padre Serafino Da Salandra ",
               "addr:housenumber" : "5",
               "tourism"  : "chalet"
               }
    }
,
   {
      "id"  : 155,
      "lat" : 40.670732,
      "lon" : 16.607459,
      "tags" : {
               "operator" : "Iacovuzzi Anna Maria",
               "ref:vatin" : "CVZNMR55R71F052Q",
               "beds" : "4",
               "name" : "I Due Angeli",
               "addr:street" : "Via Tasso ",
               "addr:housenumber" : "9",
               "tourism"  : "chalet"
               }
    }
,
   {
      "id"  : 156,
      "lat" : 40.66633253,
      "lon" : 16.61261369,
      "tags" : {
               "operator" : "De Pace Luigi Emilio",
               "ref:vatin" : "DPCLML69E15L049V",
               "beds" : "3",
               "name" : "I Due Gattoni",
               "addr:street" : "Via San Giacomo ",
               "addr:housenumber" : "52",
               "tourism"  : "chalet"
               }
    }
,
   {
      "id"  : 157,
      "lat" : 40.66581057,
      "lon" : 16.60447637,
      "tags" : {
               "operator" : "Gabor Antonella Marinella",
               "ref:vatin" : "GBRNNL90H53Z129K",
               "beds" : "5",
               "name" : "I Fuochi",
               "addr:street" : "Piazza Mulino ",
               "addr:housenumber" : "14",
               "tourism"  : "chalet"
               }
    }
,
   {
      "id"  : 158,
      "lat" : 40.6727176,
      "lon" : 16.6077398,
      "tags" : {
               "operator" : "Giampetruzzi Nicola",
               "ref:vatin" : "MTRMGH48A66F201Y",
               "beds" : "6",
               "name" : "I Sassi Da Nonno Ciccio",
               "addr:street" : "Via S. Stefano ",
               "addr:housenumber" : "29",
               "tourism"  : "chalet"
               }
    }
,
   {
      "id"  : 159,
      "lat" : 40.66649752,
      "lon" : 16.61253156,
      "tags" : {
               "operator" : "Di Cuia Teopista",
               "ref:vatin" : "DCITST69S51F052F",
               "beds" : "4",
               "name" : "I Sassi di Teopista",
               "addr:street" : "Recinto Primop Di Via San Giacomo ",
               "addr:housenumber" : "10",
               "tourism"  : "chalet"
               }
    }
,
   {
      "id"  : 160,
      "lat" : 40.65356912,
      "lon" : 16.46844349,
      "tags" : {
               "operator" : "Quinto Rossella",
               "ref:vatin" : "QNTRSL81H54F052K",
               "beds" : "2",
               "name" : "I Sassi In Collina",
               "addr:street" : "Borgo Timmari",
               "tourism"  : "chalet"
               }
    }
,
   {
      "id"  : 161,
      "lat" : 40.6717055,
      "lon" : 16.6084209,
      "tags" : {
               "operator" : "Casalino Ciriaca",
               "ref:vatin" : "CSLCRC53P45F052N",
               "beds" : "2",
               "name" : "I Sassi sul Tufo",
               "addr:street" : "Via Santo Stefano ",
               "addr:housenumber" : "89",
               "tourism"  : "chalet"
               }
    }
,
   {
      "id"  : 162,
      "lat" : 40.65361735,
      "lon" : 16.46988472,
      "tags" : {
               "operator" : "Manzi Rosa",
               "ref:vatin" : "MNZRSO47P48L418X",
               "beds" : "3",
               "name" : "I Tre Archi del Verde Colle di Timmari",
               "addr:street" : "Località Timmari",
               "tourism"  : "chalet"
               }
    }
,
   {
      "id"  : 163,
      "lat" : 40.67113,
      "lon" : 16.605989,
      "tags" : {
               "operator" : "Cirillo Luciano",
               "ref:vatin" : "CRLLCN61A01F052K",
               "beds" : "4",
               "name" : "I Tre Cardilli",
               "addr:street" : "Via Rosselli ",
               "addr:housenumber" : "31",
               "tourism"  : "chalet"
               }
    }
,
   {
      "id"  : 164,
      "lat" : 40.664793,
      "lon" : 16.611572,
      "tags" : {
               "operator" : "Losco Vittorio L.F.",
               "ref:vatin" : "LSCVTR75B20F052Q",
               "beds" : "4",
               "name" : "I Tre Portali",
               "addr:street" : "Rione Pianelle ",
               "addr:housenumber" : "89",
               "tourism"  : "chalet"
               }
    }
,
   {
      "id"  : 165,
      "lat" : 40.664102,
      "lon" : 16.611126,
      "tags" : {
               "operator" : "Laguardia Filippo",
               "ref:vatin" : "LGRFPP78D22F052S",
               "beds" : "2",
               "name" : "Idris Loft Civico 5",
               "addr:street" : "Via Ponte San Pietro Caveoso ",
               "addr:housenumber" : "5",
               "tourism"  : "chalet"
               }
    }
,
   {
      "id"  : 166,
      "lat" : 40.663953,
      "lon" : 16.6109685,
      "tags" : {
               "operator" : "Laguardia Filippo",
               "ref:vatin" : "LGRFPP78D22F052S",
               "beds" : "2",
               "name" : "Idris Loft Civico 8",
               "addr:street" : "Via Ponte San Pietro Caveoso",
               "addr:housenumber" : "8",
               "tourism"  : "chalet"
               }
    }
,
   {
      "id"  : 167,
      "lat" : 40.669989,
      "lon" : 16.60884,
      "tags" : {
               "operator" : "Defina Daniela",
               "ref:vatin" : "DFNDNL79C52C134R",
               "beds" : "4",
               "name" : "Il Balconcino",
               "addr:street" : "Via Santa Cesarea ",
               "addr:housenumber" : "13",
               "tourism"  : "chalet"
               }
    }
,
   {
      "id"  : 168,
      "lat" : 40.6627493,
      "lon" : 16.6103562,
      "tags" : {
               "operator" : "Angela Tarasco",
               "ref:vatin" : "TRSNGL66L49F052S",
               "beds" : "5",
               "name" : "Il Biancospino",
               "addr:street" : "Via Casalnuovo ",
               "addr:housenumber" : "259",
               "tourism"  : "chalet"
               }
    }
,
   {
      "id"  : 169,
      "lat" : 40.66965853,
      "lon" : 16.60833578,
      "tags" : {
               "operator" : "Sergio Saladini",
               "ref:vatin" : "SLDSRG86R04F052Q",
               "beds" : "5",
               "name" : "Il Brigante",
               "addr:street" : "Vico Piave ",
               "addr:housenumber" : "4",
               "tourism"  : "chalet"
               }
    }
,
   {
      "id"  : 170,
      "lat" : 40.66581057,
      "lon" : 16.60447637,
      "tags" : {
               "operator" : "Gabor Antonella Marinella",
               "ref:vatin" : "GBRNNL90H53Z129K",
               "beds" : "4",
               "name" : "Il Carro Trionfale",
               "addr:street" : "Piazza Mulino ",
               "addr:housenumber" : "14",
               "tourism"  : "chalet"
               }
    }
,
   {
      "id"  : 171,
      "lat" : 40.65673927,
      "lon" : 16.61660188,
      "tags" : {
               "operator" : "Tassiello Eleonora",
               "ref:vatin" : "TSSLNR86C70F052Q",
               "beds" : "2",
               "name" : "Il Casale dei Sassi",
               "addr:street" : "Via Casalnuovo ",
               "addr:housenumber" : "305",
               "tourism"  : "chalet"
               }
    }
,
   {
      "id"  : 172,
      "lat" : 40.66581057,
      "lon" : 16.60447637,
      "tags" : {
               "operator" : "Gabor Antonella Marinella",
               "ref:vatin" : "GBRNNL90H53Z129K",
               "beds" : "5",
               "name" : "Il Cavaliere",
               "addr:street" : "Piazza Mulino ",
               "addr:housenumber" : "14",
               "tourism"  : "chalet"
               }
    }
,
   {
      "id"  : 173,
      "lat" : 40.6663236,
      "lon" : 16.6039824,
      "tags" : {
               "operator" : "Roberta Coniglio",
               "ref:vatin" : "CNRRT91B54F052Z",
               "beds" : "4",
               "name" : "Il Coniglio Bruno",
               "addr:street" : "Via Lucana ",
               "addr:housenumber" : "229",
               "tourism"  : "chalet"
               }
    }
,
   {
      "id"  : 174,
      "lat" : 40.66429457,
      "lon" : 16.61015553,
      "tags" : {
               "operator" : "Peraggine Silvia",
               "ref:vatin" : "PRGSLV92B54F052B",
               "beds" : "4",
               "name" : "Il Cricchio nei Sassi",
               "addr:street" : "Via Sinni ",
               "addr:housenumber" : "14",
               "tourism"  : "chalet"
               }
    }
,
   {
      "id"  : 175,
      "lat" : 40.6657398,
      "lon" : 16.6115226,
      "tags" : {
               "operator" : "Maria Rosaria Fiore",
               "ref:vatin" : "FRIMRS56C56F052R",
               "beds" : "4",
               "name" : "Il Fiore dei Sassi",
               "addr:street" : "Vico Santo Stefano ",
               "addr:housenumber" : "94",
               "tourism"  : "chalet"
               }
    }
,
   {
      "id"  : 176,
      "lat" : 40.666178,
      "lon" : 16.6109311,
      "tags" : {
               "operator" : "Gambetta Nunzia",
               "ref:vatin" : "GMBNNZ83H69F052L",
               "beds" : "4",
               "name" : "Il Follia Casa Vacanza",
               "addr:street" : "Castelvecchio ",
               "addr:housenumber" : "5",
               "tourism"  : "chalet"
               }
    }
,
   {
      "id"  : 177,
      "lat" : 40.6631175,
      "lon" : 16.61090582,
      "tags" : {
               "operator" : "Faccia Domenico R.",
               "ref:vatin" : "FCCDNC47H21F052S",
               "beds" : "4",
               "name" : "Il Fontanino",
               "addr:street" : "Rec.Ridola ",
               "addr:housenumber" : "1e",
               "tourism"  : "chalet"
               }
    }
,
   {
      "id"  : 178,
      "lat" : 40.6744738,
      "lon" : 16.6017041,
      "tags" : {
               "operator" : "Favilli Anna Maria",
               "ref:vatin" : "FVLNMR58D58A6621",
               "beds" : "6",
               "name" : "Il Giacinto Allegro",
               "addr:street" : "Via Umbria ",
               "addr:housenumber" : "6",
               "tourism"  : "chalet"
               }
    }
,
   {
      "id"  : 179,
      "lat" : 40.66250348,
      "lon" : 16.6068934,
      "tags" : {
               "operator" : "Motta Vincenzo",
               "ref:vatin" : "MTTVCN73M11F052P",
               "beds" : "4",
               "name" : "Il Giardinetto",
               "addr:street" : "Via Andrea Serrao ",
               "addr:housenumber" : "18",
               "tourism"  : "chalet"
               }
    }
,
   {
      "id"  : 180,
      "lat" : 40.6772986,
      "lon" : 16.5951402,
      "tags" : {
               "operator" : "Iozzi Filomena Giovanna",
               "ref:vatin" : "ZZIFMN63S70A662L",
               "beds" : "2",
               "name" : "Il Giardino Segreto",
               "addr:street" : "Vico San Leonardo ",
               "addr:housenumber" : "12",
               "tourism"  : "chalet"
               }
    }
,
   {
      "id"  : 181,
      "lat" : 40.6690617,
      "lon" : 16.60589323,
      "tags" : {
               "operator" : "Giacinta Cicorelli",
               "ref:vatin" : "CCRGNT52T57F052X",
               "beds" : "3",
               "name" : "Il Giglio",
               "addr:street" : "Piazza C. Firrao ",
               "addr:housenumber" : "19",
               "tourism"  : "chalet"
               }
    }
,
   {
      "id"  : 182,
      "lat" : 40.6672354,
      "lon" : 16.6036485,
      "tags" : {
               "operator" : "Girardi Angela",
               "ref:vatin" : "GRRNGL75P47E038W",
               "beds" : "5",
               "name" : "Il Girasole",
               "addr:street" : "Via Roma ",
               "addr:housenumber" : "28",
               "tourism"  : "chalet"
               }
    }
,
   {
      "id"  : 183,
      "lat" : 40.666275,
      "lon" : 16.607058,
      "tags" : {
               "operator" : "Luciano Sarra",
               "ref:vatin" : "SRRLCN72T19F052H",
               "beds" : "3",
               "name" : "Il Gufo e La Pupa",
               "addr:street" : "Vicolo San Giuseppe ",
               "addr:housenumber" : "21",
               "tourism"  : "chalet"
               }
    }
,
   {
      "id"  : 184,
      "lat" : 40.66585784,
      "lon" : 16.6079427,
      "tags" : {
               "operator" : "Martino Anna",
               "ref:vatin" : "MRTNNA85L61F052C",
               "beds" : "10",
               "name" : "Il Melograno",
               "addr:street" : "Vico Commercio ",
               "addr:housenumber" : "5",
               "tourism"  : "chalet"
               }
    }
,
   {
      "id"  : 185,
      "lat" : 40.663979,
      "lon" : 16.534773,
      "tags" : {
               "operator" : "Alessandro Bruno",
               "name" : "Il Mirto",
               "addr:street" : "Via Donatello Donato ",
               "addr:housenumber" : "15",
               "tourism"  : "chalet"
               }
    }
,
   {
      "id"  : 186,
      "lat" : 40.6627493,
      "lon" : 16.6103562,
      "tags" : {
               "operator" : "Marcosano Giacinta",
               "ref:vatin" : "MRCGNT70L69F052T",
               "beds" : "4",
               "name" : "Il Mulino a Vento",
               "addr:street" : "Via Casalnuovo ",
               "addr:housenumber" : "201",
               "tourism"  : "chalet"
               }
    }
,
   {
      "id"  : 187,
      "lat" : 40.668147,
      "lon" : 16.609776,
      "tags" : {
               "operator" : "Francesca Iannuzzi",
               "ref:vatin" : "NNZFNC80S45F052R",
               "beds" : "4",
               "name" : "Il Nido nei Sassi",
               "addr:street" : "Via D'Addozio ",
               "addr:housenumber" : "31",
               "tourism"  : "chalet"
               }
    }
,
   {
      "id"  : 188,
      "lat" : 40.66630679,
      "lon" : 16.61110855,
      "tags" : {
               "operator" : "Andrea Acito",
               "ref:vatin" : "CTANDR73S16F052W",
               "beds" : "5",
               "name" : "Il Nido sul Duomo",
               "addr:street" : "S. Castelvecchio ",
               "addr:housenumber" : "1",
               "tourism"  : "chalet"
               }
    }
,
   {
      "id"  : 189,
      "lat" : 40.6510924,
      "lon" : 16.6175924,
      "tags" : {
               "operator" : "Raffaello Martino",
               "ref:vatin" : "MRTRFL91T29F052J",
               "beds" : "3",
               "name" : "Il Pergolato",
               "addr:street" : "Vico Iv Cappuccini ",
               "addr:housenumber" : "10",
               "tourism"  : "chalet"
               }
    }
,
   {
      "id"  : 190,
      "lat" : 40.665315,
      "lon" : 16.6016844,
      "tags" : {
               "operator" : "Maria Rosaria Pisciotta",
               "ref:vatin" : "PSCMRS87R47A662P",
               "beds" : "2",
               "name" : "Il Priore Holliday Home",
               "addr:street" : "Via Cappelluti ",
               "addr:housenumber" : "63",
               "tourism"  : "chalet"
               }
    }
,
   {
      "id"  : 191,
      "lat" : 40.65881901,
      "lon" : 16.60313834,
      "tags" : {
               "operator" : "Soc.Coop.Il Puzzle",
               "ref:vatin" : "IT705820777",
               "beds" : "8",
               "name" : "Il Puzzle",
               "addr:street" : "Via Del Tulipano ",
               "addr:housenumber" : "10",
               "tourism"  : "chalet"
               }
    }
,
   {
      "id"  : 192,
      "lat" : 40.6440992,
      "lon" : 16.6225127,
      "tags" : {
               "operator" : "Ciannella Rossella",
               "ref:vatin" : "CNNRSL75P52C134X",
               "beds" : "4",
               "name" : "Il Recinto dei Sassi",
               "addr:street" : "Recinto Columella ",
               "addr:housenumber" : "6",
               "tourism"  : "chalet"
               }
    }
,
   {
      "id"  : 193,
      "lat" : 40.6618267,
      "lon" : 16.61117549,
      "tags" : {
               "operator" : "Daniela Armaiuoli",
               "ref:vatin" : "RMLDNL80B68F052O",
               "beds" : "4",
               "name" : "Il Respiro nei Sassi",
               "addr:street" : "Via Casalnuovo ",
               "addr:housenumber" : "73",
               "tourism"  : "chalet"
               }
    }
,
   {
      "id"  : 194,
      "lat" : 40.66069472,
      "lon" : 16.61240653,
      "tags" : {
               "operator" : "Smaldone Sonia",
               "ref:vatin" : "SMLSN095S70L418K",
               "beds" : "4",
               "name" : "Il Sassetto",
               "addr:street" : "Recintoquinto Lucana ",
               "addr:housenumber" : "4",
               "tourism"  : "chalet"
               }
    }
,
   {
      "id"  : 195,
      "lat" : 40.6642086,
      "lon" : 16.6111538,
      "tags" : {
               "operator" : "Staffieri Giovanna",
               "ref:vatin" : "STFGNN77R45F052S",
               "beds" : "3",
               "name" : "Il Sasso Sotto L'albero",
               "addr:street" : "Via San Pietro Caveoso ",
               "addr:housenumber" : "7",
               "tourism"  : "chalet"
               }
    }
,
   {
      "id"  : 196,
      "lat" : 40.66117921,
      "lon" : 16.61299223,
      "tags" : {
               "operator" : "Stella Raffaele",
               "ref:vatin" : "STLRFL54MO2F052C",
               "beds" : "4",
               "name" : "Il Sogno e La Stella",
               "addr:street" : "Vico ",
               "addr:housenumber" : "1°",
               "tourism"  : "chalet"
               }
    }
,
   {
      "id"  : 197,
      "lat" : 40.65834266,
      "lon" : 16.61610054,
      "tags" : {
               "operator" : "Eustachio Carlucci",
               "ref:vatin" : "CRLSCH89L06A662Z",
               "beds" : "4",
               "name" : "Il Sole dei Sassi",
               "addr:street" : "Via Casalnuovo ",
               "addr:housenumber" : "271",
               "tourism"  : "chalet"
               }
    }
,
   {
      "id"  : 198,
      "lat" : 40.6668209,
      "lon" : 16.6024221,
      "tags" : {
               "operator" : "Nicola Duni",
               "ref:vatin" : "DNUNCL71B10F052X",
               "beds" : "4",
               "name" : "Il Sole Dentro",
               "addr:street" : "Piazza Matteotti ",
               "addr:housenumber" : "7",
               "tourism"  : "chalet"
               }
    }
,
   {
      "id"  : 199,
      "lat" : 40.667502,
      "lon" : 16.607913,
      "tags" : {
               "operator" : "Antonicelli Teresa",
               "ref:vatin" : "NTNTRS83S63L418J",
               "beds" : "3",
               "name" : "Il Sole di Paglia",
               "addr:street" : "Via San Biagio ",
               "addr:housenumber" : "26",
               "tourism"  : "chalet"
               }
    }
,
   {
      "id"  : 200,
      "lat" : 40.666659,
      "lon" : 16.608279,
      "tags" : {
               "operator" : "Antonicelli Teresa",
               "ref:vatin" : "NTNTRS83S63L418J",
               "beds" : "2",
               "name" : "Il Sole di Paglia Giu'",
               "addr:street" : "Via Fiorentini ",
               "addr:housenumber" : "71",
               "tourism"  : "chalet"
               }
    }
,
   {
      "id"  : 201,
      "lat" : 40.66793986,
      "lon" : 16.61093197,
      "tags" : {
               "operator" : "Laterza Carolina Anna",
               "ref:vatin" : "LTRCLN58R54F052F",
               "beds" : "6",
               "name" : "Il Sole nei Sassi",
               "addr:street" : "Via San Nicola Del Sole ",
               "addr:housenumber" : "1",
               "tourism"  : "chalet"
               }
    }
,
   {
      "id"  : 202,
      "lat" : 40.6638382,
      "lon" : 16.611566,
      "tags" : {
               "operator" : "Annunziata Schiuma",
               "ref:vatin" : "SCHNNZ57T65F052C",
               "beds" : "4",
               "name" : "Il Tempo Ritrovato",
               "addr:street" : "Via B.Buozzi ",
               "addr:housenumber" : "132",
               "tourism"  : "chalet"
               }
    }
,
   {
      "id"  : 203,
      "lat" : 40.6608489,
      "lon" : 16.6131396,
      "tags" : {
               "operator" : "Papapietro Anna",
               "ref:vatin" : "PPPNNA54C47F052J",
               "beds" : "2",
               "name" : "Il Trifoglio",
               "addr:street" : "Vico ",
               "addr:housenumber" : "2°",
               "tourism"  : "chalet"
               }
    }
,
   {
      "id"  : 204,
      "lat" : 40.6594201,
      "lon" : 16.6037732,
      "tags" : {
               "operator" : "Angela Maria Dragone",
               "ref:vatin" : "DRGNLM66A41F052G",
               "beds" : "5",
               "name" : "Il Tulipano",
               "addr:street" : "Viale Tulipano ",
               "addr:housenumber" : "2",
               "tourism"  : "chalet"
               }
    }
,
   {
      "id"  : 205,
      "lat" : 40.66714909,
      "lon" : 16.60884061,
      "tags" : {
               "operator" : "Giuseppe Antonio Acito",
               "ref:vatin" : "CTAGPP71D27F052F",
               "beds" : "4",
               "name" : "Il Vialetto nei Sassi",
               "addr:street" : "Via San Rocco",
               "addr:housenumber" : "47",
               "tourism"  : "chalet"
               }
    }
,
   {
      "id"  : 206,
      "lat" : 40.66714909,
      "lon" : 16.60884061,
      "tags" : {
               "operator" : "Giuseppe Antonio Acito",
               "ref:vatin" : "CTAGPP71D27F052F",
               "beds" : "4",
               "name" : "Il Vialetto nei Sassi",
               "addr:street" : "Via San Rocco  ",
               "addr:housenumber" : "51-59",
               "tourism"  : "chalet"
               }
    }
,
   {
      "id"  : 207,
      "lat" : 40.66413136,
      "lon" : 16.61100398,
      "tags" : {
               "operator" : "Teresa Urgo",
               "ref:vatin" : "RGUTRS62C47F052E",
               "beds" : "2",
               "name" : "Il Vicinato",
               "addr:street" : "Pi.Zza S.P.Caveoso ",
               "addr:housenumber" : "2",
               "tourism"  : "chalet"
               }
    }
,
   {
      "id"  : 208,
      "lat" : 40.67009552,
      "lon" : 16.60788777,
      "tags" : {
               "operator" : "Loperfido Margherita Lucia",
               "ref:vatin" : "LPRMGH61A67F052N",
               "beds" : "3",
               "name" : "Il Vicoletto",
               "addr:street" : "Via F. P. Festa ",
               "addr:housenumber" : "9",
               "tourism"  : "chalet"
               }
    }
,
   {
      "id"  : 209,
      "lat" : 40.66978158,
      "lon" : 16.60763235,
      "tags" : {
               "operator" : "Filomena Fabrizio",
               "ref:vatin" : "FBRFMN36A52F052U",
               "beds" : "3",
               "name" : "In Bocca Ai Sassi",
               "addr:street" : "Via F. Paolo Festa ",
               "addr:housenumber" : "10",
               "tourism"  : "chalet"
               }
    }
,
   {
      "id"  : 210,
      "lat" : 40.6662804,
      "lon" : 16.6062283,
      "tags" : {
               "operator" : "Guanti Rita Paola",
               "ref:vatin" : "GNTMNT62D47F052Y",
               "beds" : "6",
               "name" : "In Piazza",
               "addr:street" : "Via Ascanio Persio ",
               "addr:housenumber" : "2",
               "tourism"  : "chalet"
               }
    }
,
   {
      "id"  : 211,
      "lat" : 40.666379,
      "lon" : 16.6043199,
      "tags" : {
               "operator" : "Tritto Francesco",
               "ref:vatin" : "TRTFNC54C23F052P",
               "beds" : "7",
               "name" : "In Piazzetta",
               "addr:street" : "Piazzetta E. Bracco ",
               "addr:housenumber" : "20",
               "tourism"  : "chalet"
               }
    }
,
   {
      "id"  : 212,
      "lat" : 40.667135,
      "lon" : 16.6077736,
      "tags" : {
               "operator" : "Cifarelli Angela Raffaella",
               "ref:vatin" : "CFRNLR58C44F052D",
               "beds" : "4",
               "name" : "Inmedio",
               "addr:street" : "Vico Fornaci Vecchie ",
               "addr:housenumber" : "63",
               "tourism"  : "chalet"
               }
    }
,
   {
      "id"  : 213,
      "lat" : 40.67698,
      "lon" : 16.579481,
      "tags" : {
               "operator" : "Salvatore Chironde",
               "ref:vatin" : "CHRSVT75L07F052W",
               "beds" : "2",
               "name" : "Interno 5",
               "addr:street" : "Via Cosenza ",
               "addr:housenumber" : "33",
               "tourism"  : "chalet"
               }
    }
,
   {
      "id"  : 214,
      "lat" : 40.66033196,
      "lon" : 16.60236624,
      "tags" : {
               "operator" : "Bruno Olga",
               "ref:vatin" : "BRNLGO71T60F052C",
               "beds" : "3",
               "name" : "Interno-5 Civico1",
               "addr:street" : "Via Del Ciclamino ",
               "addr:housenumber" : "1",
               "tourism"  : "chalet"
               }
    }
,
   {
      "id"  : 215,
      "lat" : 40.667316,
      "lon" : 16.607872,
      "tags" : {
               "operator" : "Paola Capriotti",
               "ref:vatin" : "CPRPLA63H53F052G",
               "beds" : "4",
               "name" : "Inviarosario",
               "addr:street" : "Via Rosario ",
               "addr:housenumber" : "73/bis",
               "tourism"  : "chalet"
               }
    }
,
   {
      "id"  : 216,
      "lat" : 40.67148799,
      "lon" : 16.58205243,
      "tags" : {
               "operator" : "Olivieri Maria Giovanna",
               "ref:vatin" : "LVRMGV57A57F052K",
               "beds" : "4",
               "name" : "Itaca",
               "addr:street" : "Via Bradano ",
               "addr:housenumber" : "11",
               "tourism"  : "chalet"
               }
    }
,
   {
      "id"  : 217,
      "lat" : 40.6656279,
      "lon" : 16.60519092,
      "tags" : {
               "operator" : "Olivieri Emilia",
               "ref:vatin" : "LVRMLE65B61F052R",
               "beds" : "4",
               "name" : "Klimt",
               "addr:street" : "Via Passarelli ",
               "addr:housenumber" : "9",
               "tourism"  : "chalet"
               }
    }
,
   {
      "id"  : 218,
      "lat" : 40.664933,
      "lon" : 16.610416,
      "tags" : {
               "operator" : "Difonzo Angela",
               "ref:vatin" : "dfngl73a56i330b",
               "name" : "L'affaccio",
               "addr:street" : "Via Pennino ",
               "addr:housenumber" : "11",
               "tourism"  : "chalet"
               }
    }
,
   {
      "id"  : 219,
      "lat" : 40.668147,
      "lon" : 16.609776,
      "tags" : {
               "operator" : "Nicoletti Domenico",
               "ref:vatin" : "NCLVCN61D12A662Q",
               "beds" : "5",
               "name" : "L'affaccio dell'abate",
               "addr:street" : "Via D'Addozio ",
               "addr:housenumber" : "18",
               "tourism"  : "chalet"
               }
    }
,
   {
      "id"  : 220,
      "lat" : 40.66296839,
      "lon" : 16.60918292,
      "tags" : {
               "operator" : "Michela Chita",
               "ref:vatin" : "CHTMHL72C70F052K",
               "beds" : "7",
               "name" : "L'albero della Vita",
               "addr:street" : "Vico Secondo Duni ",
               "addr:housenumber" : "10",
               "tourism"  : "chalet"
               }
    }
,
   {
      "id"  : 221,
      "lat" : 40.66422769,
      "lon" : 16.60009137,
      "tags" : {
               "operator" : "Nunzia Iacovone",
               "ref:vatin" : "CVNNNZ68S43F052K",
               "beds" : "2",
               "name" : "L'albero di Famiglia",
               "addr:street" : "Vico Iii Cappelluti ",
               "addr:housenumber" : "4",
               "tourism"  : "chalet"
               }
    }
,
   {
      "id"  : 222,
      "lat" : 40.6633019,
      "lon" : 16.6108916,
      "tags" : {
               "operator" : "Anna Strada",
               "ref:vatin" : "STRNMR69D48A662L",
               "beds" : "2",
               "name" : "L'angolo De Poeta",
               "addr:street" : "Calata Domenico Ridola ",
               "addr:housenumber" : "63",
               "tourism"  : "chalet"
               }
    }
,
   {
      "id"  : 223,
      "lat" : 40.67243,
      "lon" : 16.6013056,
      "tags" : {
               "operator" : "Zaccaro F. Paolo",
               "ref:vatin" : "ZCCFNC55B07F052E",
               "beds" : "6",
               "name" : "L'angolo del Parco",
               "addr:street" : "Via Della Croce ",
               "addr:housenumber" : "1",
               "tourism"  : "chalet"
               }
    }
,
   {
      "id"  : 224,
      "lat" : 40.6661359,
      "lon" : 16.6117184,
      "tags" : {
               "operator" : "Strada Anna Maria",
               "ref:vatin" : "STRNMR69D48A662L",
               "beds" : "4",
               "name" : "L'angolo del Poeta Suite Essence --idylle",
               "addr:street" : "Via Muro ",
               "addr:housenumber" : "4/a--4/b",
               "tourism"  : "chalet"
               }
    }
,
   {
      "id"  : 225,
      "lat" : 40.66617144,
      "lon" : 16.61175509,
      "tags" : {
               "operator" : "Strada Annamaria",
               "ref:vatin" : "STRNMR69D48A662L",
               "beds" : "6",
               "name" : "L'angolo del Poetasuite2",
               "addr:street" : "Via Muro",
               "addr:housenumber" : "4b-5",
               "tourism"  : "chalet"
               }
    }
,
   {
      "id"  : 226,
      "lat" : 40.66835122,
      "lon" : 16.61024687,
      "tags" : {
               "operator" : "Pellicoro Damiana",
               "ref:vatin" : "PLLDMN49C53E036G",
               "beds" : "4",
               "name" : "L'angolo Fiorito",
               "addr:street" : "Via S'Antonio Abate ",
               "addr:housenumber" : "20",
               "tourism"  : "chalet"
               }
    }
,
   {
      "id"  : 227,
      "lat" : 40.67243,
      "lon" : 16.6013056,
      "tags" : {
               "operator" : "Zaccaro Francesco P.",
               "name" : "L'angolo sul Parco",
               "addr:street" : "Via Della Croce ",
               "addr:housenumber" : "1",
               "tourism"  : "chalet"
               }
    }
,
   {
      "id"  : 228,
      "lat" : 40.672984,
      "lon" : 16.607316,
      "tags" : {
               "operator" : "Festa Francesco Paolo",
               "ref:vatin" : "FSTFNC64S07F052G",
               "beds" : "6",
               "name" : "L'arcobaleno sui Sassi",
               "addr:street" : "Via Giuseppe Gattini ",
               "addr:housenumber" : "41",
               "tourism"  : "chalet"
               }
    }
,
   {
      "id"  : 229,
      "lat" : 40.6433146,
      "lon" : 16.6241252,
      "tags" : {
               "operator" : "D'Uggento Antonia Gabriella",
               "ref:vatin" : "DGGNNG58H62C136G",
               "beds" : "4",
               "name" : "L'hirondelle",
               "addr:street" : "Via T. Ricciardi ",
               "addr:housenumber" : "24",
               "tourism"  : "chalet"
               }
    }
,
   {
      "id"  : 230,
      "lat" : 40.661252,
      "lon" : 16.5332105,
      "tags" : {
               "operator" : "Francione Francesco Paolo",
               "ref:vatin" : "FRNFNC46M31F052Z",
               "beds" : "9",
               "name" : "L'ulivo",
               "addr:street" : "Via Monviso ",
               "addr:housenumber" : "13",
               "tourism"  : "chalet"
               }
    }
,
   {
      "id"  : 231,
      "lat" : 40.6665738,
      "lon" : 16.60924168,
      "tags" : {
               "operator" : "Dina Casciaro",
               "ref:vatin" : "CSCDNI80T69F052F",
               "beds" : "8",
               "name" : "L'ulivo Nella Corte",
               "addr:street" : "Via Fiorentini ",
               "addr:housenumber" : "131",
               "tourism"  : "chalet"
               }
    }
,
   {
      "id"  : 232,
      "lat" : 40.67045225,
      "lon" : 16.60675014,
      "tags" : {
               "operator" : "Cernitore Paolo",
               "ref:vatin" : "CRNPLA68L26A662B",
               "beds" : "4",
               "name" : "La Baita nei Sassi",
               "addr:street" : "Via Pentasuglia ",
               "addr:housenumber" : "31",
               "tourism"  : "chalet"
               }
    }
,
   {
      "id"  : 233,
      "lat" : 40.6622899,
      "lon" : 16.611079,
      "tags" : {
               "operator" : "Gagliardi Cesare",
